{
    "shipments": [
      {
        "shipment_order_number": "MB20251113-0004",
        "shipment_id": "0a2a7ac8-87f4-4599-a09c-697745878e90",
        "shipment_status": "in_transit",
        
        "route_info": {
          "origin": {
            "port_name": "SANTOS, BRAZIL",
            "port_code": "BRSST",
            "coordinates": {
              "latitude": -23.9608,
              "longitude": -46.3339
            }
          },
          
          "destination": {
            "port_name": "MUHAMMAD BIN QASIM (PORT QASIM), PAKISTAN",
            "port_code": "PKQCT",
            "coordinates": {
              "latitude": 24.7854,
              "longitude": 67.3480
            }
          },
          
          "transshipment_ports": [
            {
              "port_name": "MUNDRA",
              "port_code": "INMUN",
              "coordinates": {
                "latitude": 22.8394,
                "longitude": 69.7197
              },
              "arrival_date": "2025-12-08T00:00:00+05:00",
              "departure_date": "2025-12-10T00:00:00+05:00",
              "vessel_at_transshipment": "MSC LONG BEACH VI",
              "vessel_imo": "9327803"
            }
          ],
          
          "route_type": "transshipment"
        },
        
        "vessels": [
          {
            "leg": 1,
            "vessel_name": "MSC KATRINA",
            "vessel_imo": "9467445",
            "from_port": "SANTOS, BRAZIL",
            "to_port": "MUNDRA",
            "departure_date": "2025-10-29T00:00:00+05:00",
            "arrival_date": "2025-12-08T00:00:00+05:00"
          },
          {
            "leg": 2,
            "vessel_name": "MSC LONG BEACH VI",
            "vessel_imo": "9327803",
            "from_port": "MUNDRA",
            "to_port": "MUHAMMAD BIN QASIM, PAKISTAN",
            "departure_date": "2025-12-10T00:00:00+05:00",
            "arrival_date": "2025-12-11T00:00:00+05:00"
          }
        ],
        
        "current_position": {
          "latitude": 23.5000,
          "longitude": 68.5000,
          "location_name": "Arabian Sea",
          "timestamp": "2025-12-10T12:00:00+05:00",
          "vessel_name": "MSC LONG BEACH VI",
          "vessel_imo": "9327803",
          "status": "In Transit",
          "current_leg": 2
        },
        
        "route_coordinates": {
          "completed_route": [
            {"latitude": -23.9608, "longitude": -46.3339},
            {"latitude": -20.0000, "longitude": -40.0000},
            {"latitude": -15.0000, "longitude": -35.0000},
            {"latitude": -10.0000, "longitude": -30.0000},
            {"latitude": -5.0000, "longitude": -25.0000},
            {"latitude": 0.0000, "longitude": -20.0000},
            {"latitude": 5.0000, "longitude": -10.0000},
            {"latitude": 10.0000, "longitude": 0.0000},
            {"latitude": 15.0000, "longitude": 20.0000},
            {"latitude": 18.0000, "longitude": 40.0000},
            {"latitude": 20.0000, "longitude": 55.0000},
            {"latitude": 22.8394, "longitude": 69.7197},
            {"latitude": 23.2000, "longitude": 69.0000},
            {"latitude": 23.5000, "longitude": 68.5000}
          ],
          
          "remaining_route": [
            {"latitude": 23.5000, "longitude": 68.5000},
            {"latitude": 24.0000, "longitude": 68.0000},
            {"latitude": 24.4000, "longitude": 67.7000},
            {"latitude": 24.7854, "longitude": 67.3480}
          ]
        },
        
        "milestones": {
          "departure_from_origin": {
            "date": "2025-10-29T00:00:00+05:00",
            "status": "completed",
            "location": "SANTOS, BRAZIL"
          },
          "arrival_at_transshipment": {
            "date": "2025-12-08T00:00:00+05:00",
            "status": "completed",
            "location": "MUNDRA"
          },
          "departure_from_transshipment": {
            "date": "2025-12-10T00:00:00+05:00",
            "status": "completed",
            "location": "MUNDRA"
          },
          "arrival_at_destination": {
            "date": "2025-12-11T00:00:00+05:00",
            "status": "pending",
            "location": "MUHAMMAD BIN QASIM, PAKISTAN"
          }
        },
        
        "tracking_info": {
          "estimated_arrival": "2025-12-11T00:00:00+05:00",
          "transit_time": "43 days",
          "sailing_status": "Sailing",
          "live_tracking_link": "https://app.maalbardaar.com/tracking?query=GESU6138809",
          "last_updated": "2025-12-10T12:00:00+05:00"
        }
      },
      {
        "shipment_order_number": "MB20250307-0001",
        "shipment_id": "3faf2fbd-b4f3-4ec8-a32a-5755bfc3391a",
        "shipment_status": "delivered",
        
        "route_info": {
          "origin": {
            "port_name": "QINGDAO, CHINA",
            "port_code": "CNTAO",
            "coordinates": {
              "latitude": 36.0667,
              "longitude": 120.3833
            }
          },
          
          "destination": {
            "port_name": "KARACHI, PAKISTAN",
            "port_code": "PKKHI",
            "coordinates": {
              "latitude": 24.8414,
              "longitude": 67.0011
            }
          },
          
          "transshipment_ports": [],
          
          "route_type": "direct"
        },
        
        "vessels": [
          {
            "leg": 1,
            "vessel_name": "COSCO SHIPPING UNIVERSE",
            "vessel_imo": "9781234",
            "from_port": "QINGDAO, CHINA",
            "to_port": "KARACHI, PAKISTAN",
            "departure_date": "2025-01-16T00:00:00+05:00",
            "arrival_date": "2025-02-11T00:00:00+05:00"
          }
        ],
        
        "current_position": {
          "latitude": 24.8414,
          "longitude": 67.0011,
          "location_name": "KARACHI, PAKISTAN",
          "timestamp": "2025-05-16T00:00:00+05:00",
          "vessel_name": null,
          "vessel_imo": null,
          "status": "Delivered",
          "current_leg": 1
        },
        
        "route_coordinates": {
          "completed_route": [
            {"latitude": 36.0667, "longitude": 120.3833},
            {"latitude": 35.0000, "longitude": 125.0000},
            {"latitude": 33.0000, "longitude": 130.0000},
            {"latitude": 30.0000, "longitude": 135.0000},
            {"latitude": 28.0000, "longitude": 130.0000},
            {"latitude": 26.0000, "longitude": 120.0000},
            {"latitude": 25.5000, "longitude": 100.0000},
            {"latitude": 25.0000, "longitude": 80.0000},
            {"latitude": 24.9000, "longitude": 70.0000},
            {"latitude": 24.8414, "longitude": 67.0011}
          ],
          
          "remaining_route": []
        },
        
        "milestones": {
          "departure_from_origin": {
            "date": "2025-01-16T00:00:00+05:00",
            "status": "completed",
            "location": "QINGDAO, CHINA"
          },
          "arrival_at_transshipment": {
            "date": null,
            "status": "not_applicable",
            "location": null
          },
          "departure_from_transshipment": {
            "date": null,
            "status": "not_applicable",
            "location": null
          },
          "arrival_at_destination": {
            "date": "2025-02-11T00:00:00+05:00",
            "status": "completed",
            "location": "KARACHI, PAKISTAN"
          }
        },
        
        "tracking_info": {
          "estimated_arrival": "2025-02-11T00:00:00+05:00",
          "transit_time": "26 days",
          "sailing_status": "Discharged",
          "live_tracking_link": "https://app.maalbardaar.com/tracking?query=799510005413",
          "last_updated": "2025-05-16T00:00:00+05:00"
        }
      },
      {
        "shipment_order_number": "MB20250320-0001",
        "shipment_id": "d0c8573c-3204-4ed6-be69-acfff91447dc",
        "shipment_status": "delivered",
        
        "route_info": {
          "origin": {
            "port_name": "LAEM CHABANG, THAILAND",
            "port_code": "THLCH",
            "coordinates": {
              "latitude": 13.0833,
              "longitude": 100.8833
            }
          },
          
          "destination": {
            "port_name": "KARACHI, PAKISTAN",
            "port_code": "PKKHI",
            "coordinates": {
              "latitude": 24.8414,
              "longitude": 67.0011
            }
          },
          
          "transshipment_ports": [],
          
          "route_type": "direct"
        },
        
        "vessels": [
          {
            "leg": 1,
            "vessel_name": "MSC MARINA",
            "vessel_imo": "9876543",
            "from_port": "LAEM CHABANG, THAILAND",
            "to_port": "KARACHI, PAKISTAN",
            "departure_date": "2025-02-01T00:00:00+05:00",
            "arrival_date": "2025-02-14T00:00:00+05:00"
          }
        ],
        
        "current_position": {
          "latitude": 24.8414,
          "longitude": 67.0011,
          "location_name": "KARACHI, PAKISTAN",
          "timestamp": "2025-04-18T00:00:00+05:00",
          "vessel_name": null,
          "vessel_imo": null,
          "status": "Delivered",
          "current_leg": 1
        },
        
        "route_coordinates": {
          "completed_route": [
            {"latitude": 13.0833, "longitude": 100.8833},
            {"latitude": 14.0000, "longitude": 95.0000},
            {"latitude": 16.0000, "longitude": 90.0000},
            {"latitude": 18.0000, "longitude": 85.0000},
            {"latitude": 20.0000, "longitude": 80.0000},
            {"latitude": 22.0000, "longitude": 75.0000},
            {"latitude": 23.5000, "longitude": 70.0000},
            {"latitude": 24.5000, "longitude": 68.0000},
            {"latitude": 24.8414, "longitude": 67.0011}
          ],
          
          "remaining_route": []
        },
        
        "milestones": {
          "departure_from_origin": {
            "date": "2025-02-01T00:00:00+05:00",
            "status": "completed",
            "location": "LAEM CHABANG, THAILAND"
          },
          "arrival_at_transshipment": {
            "date": null,
            "status": "not_applicable",
            "location": null
          },
          "departure_from_transshipment": {
            "date": null,
            "status": "not_applicable",
            "location": null
          },
          "arrival_at_destination": {
            "date": "2025-02-14T00:00:00+05:00",
            "status": "completed",
            "location": "KARACHI, PAKISTAN"
          }
        },
        
        "tracking_info": {
          "estimated_arrival": "2025-02-14T00:00:00+05:00",
          "transit_time": "13 days",
          "sailing_status": "Discharged",
          "live_tracking_link": "https://app.maalbardaar.com/tracking?query=BKKF19739400",
          "last_updated": "2025-04-18T00:00:00+05:00"
        }
      },
      {
        "shipment_order_number": "MB20251207-0002",
        "shipment_id": "bc23d1a1-d4c0-4f89-8589-82f7610d9ee2",
        "shipment_status": "closed",
        
        "route_info": {
          "origin": {
            "port_name": "PORT QASIM, PAKISTAN",
            "port_code": "PKQCT",
            "coordinates": {
              "latitude": 24.7854,
              "longitude": 67.3480
            }
          },
          
          "destination": {
            "port_name": "NORFLOK, USA",
            "port_code": "USORF",
            "coordinates": {
              "latitude": 36.8468,
              "longitude": -76.2852
            }
          },
          
          "transshipment_ports": [],
          
          "route_type": "direct"
        },
        
        "vessels": [
          {
            "leg": 1,
            "vessel_name": "MAERSK VIRGINIA",
            "vessel_imo": "9123456",
            "from_port": "PORT QASIM, PAKISTAN",
            "to_port": "NORFLOK, USA",
            "departure_date": "2025-01-09T00:00:00+05:00",
            "arrival_date": "2025-02-23T00:00:00+05:00"
          }
        ],
        
        "current_position": {
          "latitude": 36.8468,
          "longitude": -76.2852,
          "location_name": "NORFLOK, USA",
          "timestamp": "2025-02-23T00:00:00+05:00",
          "vessel_name": null,
          "vessel_imo": null,
          "status": "Closed",
          "current_leg": 1
        },
        
        "route_coordinates": {
          "completed_route": [
            {"latitude": 24.7854, "longitude": 67.3480},
            {"latitude": 26.0000, "longitude": 60.0000},
            {"latitude": 28.0000, "longitude": 50.0000},
            {"latitude": 30.0000, "longitude": 30.0000},
            {"latitude": 32.0000, "longitude": 10.0000},
            {"latitude": 34.0000, "longitude": -10.0000},
            {"latitude": 35.0000, "longitude": -30.0000},
            {"latitude": 36.0000, "longitude": -50.0000},
            {"latitude": 36.5000, "longitude": -65.0000},
            {"latitude": 36.7000, "longitude": -72.0000},
            {"latitude": 36.8468, "longitude": -76.2852}
          ],
          
          "remaining_route": []
        },
        
        "milestones": {
          "departure_from_origin": {
            "date": "2025-01-09T00:00:00+05:00",
            "status": "completed",
            "location": "PORT QASIM, PAKISTAN"
          },
          "arrival_at_transshipment": {
            "date": null,
            "status": "not_applicable",
            "location": null
          },
          "departure_from_transshipment": {
            "date": null,
            "status": "not_applicable",
            "location": null
          },
          "arrival_at_destination": {
            "date": "2025-02-23T00:00:00+05:00",
            "status": "completed",
            "location": "NORFLOK, USA"
          }
        },
        
        "tracking_info": {
          "estimated_arrival": "2025-02-23T00:00:00+05:00",
          "transit_time": "45 days",
          "sailing_status": "Discharged",
          "live_tracking_link": "https://app.maalbardaar.com/tracking?query=AKI0560100",
          "last_updated": "2025-02-23T00:00:00+05:00"
        }
      },
      {
        "shipment_order_number": "MB20250321-0001",
        "shipment_id": "fbad1693-2796-4218-93e7-6ac41a395c69",
        "shipment_status": "delivered",
        
        "route_info": {
          "origin": {
            "port_name": "SHANGHAI, CHINA",
            "port_code": "CNSHA",
            "coordinates": {
              "latitude": 31.2304,
              "longitude": 121.4737
            }
          },
          
          "destination": {
            "port_name": "KARACHI, PAKISTAN",
            "port_code": "PKKHI",
            "coordinates": {
              "latitude": 24.8414,
              "longitude": 67.0011
            }
          },
          
          "transshipment_ports": [
            {
              "port_name": "SINGAPORE",
              "port_code": "SGSIN",
              "coordinates": {
                "latitude": 1.2644,
                "longitude": 103.8224
              },
              "arrival_date": "2025-02-05T00:00:00+05:00",
              "departure_date": "2025-02-07T00:00:00+05:00",
              "vessel_at_transshipment": "MSC MEDITERRANEAN",
              "vessel_imo": "8765432"
            }
          ],
          
          "route_type": "transshipment"
        },
        
        "vessels": [
          {
            "leg": 1,
            "vessel_name": "COSCO SHIPPING TAURUS",
            "vessel_imo": "7654321",
            "from_port": "SHANGHAI, CHINA",
            "to_port": "SINGAPORE",
            "departure_date": "2025-01-25T00:00:00+05:00",
            "arrival_date": "2025-02-05T00:00:00+05:00"
          },
          {
            "leg": 2,
            "vessel_name": "MSC MEDITERRANEAN",
            "vessel_imo": "8765432",
            "from_port": "SINGAPORE",
            "to_port": "KARACHI, PAKISTAN",
            "departure_date": "2025-02-07T00:00:00+05:00",
            "arrival_date": "2025-02-18T00:00:00+05:00"
          }
        ],
        
        "current_position": {
          "latitude": 24.8414,
          "longitude": 67.0011,
          "location_name": "KARACHI, PAKISTAN",
          "timestamp": "2025-02-18T00:00:00+05:00",
          "vessel_name": null,
          "vessel_imo": null,
          "status": "Delivered",
          "current_leg": 2
        },
        
        "route_coordinates": {
          "completed_route": [
            {"latitude": 31.2304, "longitude": 121.4737},
            {"latitude": 28.0000, "longitude": 115.0000},
            {"latitude": 25.0000, "longitude": 110.0000},
            {"latitude": 20.0000, "longitude": 108.0000},
            {"latitude": 15.0000, "longitude": 106.0000},
            {"latitude": 10.0000, "longitude": 105.0000},
            {"latitude": 5.0000, "longitude": 104.0000},
            {"latitude": 1.2644, "longitude": 103.8224},
            {"latitude": 5.0000, "longitude": 100.0000},
            {"latitude": 10.0000, "longitude": 90.0000},
            {"latitude": 15.0000, "longitude": 80.0000},
            {"latitude": 20.0000, "longitude": 75.0000},
            {"latitude": 23.0000, "longitude": 70.0000},
            {"latitude": 24.5000, "longitude": 68.0000},
            {"latitude": 24.8414, "longitude": 67.0011}
          ],
          
          "remaining_route": []
        },
        
        "milestones": {
          "departure_from_origin": {
            "date": "2025-01-25T00:00:00+05:00",
            "status": "completed",
            "location": "SHANGHAI, CHINA"
          },
          "arrival_at_transshipment": {
            "date": "2025-02-05T00:00:00+05:00",
            "status": "completed",
            "location": "SINGAPORE"
          },
          "departure_from_transshipment": {
            "date": "2025-02-07T00:00:00+05:00",
            "status": "completed",
            "location": "SINGAPORE"
          },
          "arrival_at_destination": {
            "date": "2025-02-18T00:00:00+05:00",
            "status": "completed",
            "location": "KARACHI, PAKISTAN"
          }
        },
        
        "tracking_info": {
          "estimated_arrival": "2025-02-18T00:00:00+05:00",
          "transit_time": "24 days",
          "sailing_status": "Discharged",
          "live_tracking_link": "https://app.maalbardaar.com/tracking?query=EURFL25106677KHI",
          "last_updated": "2025-02-18T00:00:00+05:00"
        }
      },
      {
        "shipment_order_number": "MB20250320-0004",
        "shipment_id": "8714e15f-3a76-46dd-a393-e2a48e73d1df",
        "shipment_status": "delivered",
        
        "route_info": {
          "origin": {
            "port_name": "BUSAN, SOUTH KOREA",
            "port_code": "KRPUS",
            "coordinates": {
              "latitude": 35.1796,
              "longitude": 129.0756
            }
          },
          
          "destination": {
            "port_name": "KARACHI, PAKISTAN",
            "port_code": "PKKHI",
            "coordinates": {
              "latitude": 24.8414,
              "longitude": 67.0011
            }
          },
          
          "transshipment_ports": [],
          
          "route_type": "direct"
        },
        
        "vessels": [
          {
            "leg": 1,
            "vessel_name": "HAPAG LLOYD BERLIN",
            "vessel_imo": "6543210",
            "from_port": "BUSAN, SOUTH KOREA",
            "to_port": "KARACHI, PAKISTAN",
            "departure_date": "2025-01-20T11:10:46+05:00",
            "arrival_date": "2025-02-11T11:10:47+05:00"
          }
        ],
        
        "current_position": {
          "latitude": 24.8414,
          "longitude": 67.0011,
          "location_name": "KARACHI, PAKISTAN",
          "timestamp": "2025-05-15T00:00:00+05:00",
          "vessel_name": null,
          "vessel_imo": null,
          "status": "Delivered",
          "current_leg": 1
        },
        
        "route_coordinates": {
          "completed_route": [
            {"latitude": 35.1796, "longitude": 129.0756},
            {"latitude": 33.0000, "longitude": 125.0000},
            {"latitude": 30.0000, "longitude": 120.0000},
            {"latitude": 28.0000, "longitude": 110.0000},
            {"latitude": 26.0000, "longitude": 100.0000},
            {"latitude": 25.5000, "longitude": 90.0000},
            {"latitude": 25.0000, "longitude": 80.0000},
            {"latitude": 24.9000, "longitude": 70.0000},
            {"latitude": 24.8414, "longitude": 67.0011}
          ],
          
          "remaining_route": []
        },
        
        "milestones": {
          "departure_from_origin": {
            "date": "2025-01-20T11:10:46+05:00",
            "status": "completed",
            "location": "BUSAN, SOUTH KOREA"
          },
          "arrival_at_transshipment": {
            "date": null,
            "status": "not_applicable",
            "location": null
          },
          "departure_from_transshipment": {
            "date": null,
            "status": "not_applicable",
            "location": null
          },
          "arrival_at_destination": {
            "date": "2025-02-11T11:10:47+05:00",
            "status": "completed",
            "location": "KARACHI, PAKISTAN"
          }
        },
        
        "tracking_info": {
          "estimated_arrival": "2025-02-11T11:10:47+05:00",
          "transit_time": "22 days",
          "sailing_status": "Discharged",
          "live_tracking_link": "https://app.maalbardaar.com/tracking?query=FBKHI250004",
          "last_updated": "2025-05-15T00:00:00+05:00"
        }
      },
      {
        "shipment_order_number": "MB20250115-0001",
        "shipment_id": "a1b2c3d4-e5f6-7890-abcd-ef1234567890",
        "shipment_status": "in_transit",
        
        "route_info": {
          "origin": {
            "port_name": "ROTTERDAM",
            "port_code": "NLRTM",
            "coordinates": {
              "latitude": 51.9244,
              "longitude": 4.4777
            }
          },
          
          "destination": {
            "port_name": "SHANGHAI, CHINA",
            "port_code": "CNSHA",
            "coordinates": {
              "latitude": 31.2304,
              "longitude": 121.4737
            }
          },
          
          "transshipment_ports": [
            {
              "port_name": "SINGAPORE",
              "port_code": "SGSIN",
              "coordinates": {
                "latitude": 1.2644,
                "longitude": 103.8224
              },
              "arrival_date": "2025-12-15T00:00:00+05:00",
              "departure_date": "2025-12-17T00:00:00+05:00",
              "vessel_at_transshipment": "CMA CGM MARCO POLO",
              "vessel_imo": "9456789"
            }
          ],
          
          "route_type": "transshipment"
        },
        
        "vessels": [
          {
            "leg": 1,
            "vessel_name": "MSC OSCAR",
            "vessel_imo": "9123456",
            "from_port": "ROTTERDAM",
            "to_port": "SINGAPORE",
            "departure_date": "2025-11-20T00:00:00+05:00",
            "arrival_date": "2025-12-15T00:00:00+05:00"
          },
          {
            "leg": 2,
            "vessel_name": "CMA CGM MARCO POLO",
            "vessel_imo": "9456789",
            "from_port": "SINGAPORE",
            "to_port": "SHANGHAI, CHINA",
            "departure_date": "2025-12-17T00:00:00+05:00",
            "arrival_date": "2025-12-25T00:00:00+05:00"
          }
        ],
        
        "current_position": {
          "latitude": 15.0000,
          "longitude": 110.0000,
          "location_name": "South China Sea",
          "timestamp": "2025-12-18T12:00:00+05:00",
          "vessel_name": "CMA CGM MARCO POLO",
          "vessel_imo": "9456789",
          "status": "In Transit",
          "current_leg": 2
        },
        
        "route_coordinates": {
          "completed_route": [
            {"latitude": 51.9244, "longitude": 4.4777},
            {"latitude": 50.0000, "longitude": 10.0000},
            {"latitude": 45.0000, "longitude": 20.0000},
            {"latitude": 40.0000, "longitude": 30.0000},
            {"latitude": 35.0000, "longitude": 40.0000},
            {"latitude": 30.0000, "longitude": 50.0000},
            {"latitude": 25.0000, "longitude": 60.0000},
            {"latitude": 20.0000, "longitude": 70.0000},
            {"latitude": 15.0000, "longitude": 80.0000},
            {"latitude": 10.0000, "longitude": 90.0000},
            {"latitude": 5.0000, "longitude": 100.0000},
            {"latitude": 1.2644, "longitude": 103.8224},
            {"latitude": 5.0000, "longitude": 108.0000},
            {"latitude": 10.0000, "longitude": 110.0000},
            {"latitude": 15.0000, "longitude": 110.0000}
          ],
          
          "remaining_route": [
            {"latitude": 15.0000, "longitude": 110.0000},
            {"latitude": 20.0000, "longitude": 115.0000},
            {"latitude": 25.0000, "longitude": 118.0000},
            {"latitude": 28.0000, "longitude": 120.0000},
            {"latitude": 31.2304, "longitude": 121.4737}
          ]
        },
        
        "milestones": {
          "departure_from_origin": {
            "date": "2025-11-20T00:00:00+05:00",
            "status": "completed",
            "location": "ROTTERDAM"
          },
          "arrival_at_transshipment": {
            "date": "2025-12-15T00:00:00+05:00",
            "status": "completed",
            "location": "SINGAPORE"
          },
          "departure_from_transshipment": {
            "date": "2025-12-17T00:00:00+05:00",
            "status": "completed",
            "location": "SINGAPORE"
          },
          "arrival_at_destination": {
            "date": "2025-12-25T00:00:00+05:00",
            "status": "pending",
            "location": "SHANGHAI, CHINA"
          }
        },
        
        "tracking_info": {
          "estimated_arrival": "2025-12-25T00:00:00+05:00",
          "transit_time": "35 days",
          "sailing_status": "Sailing",
          "live_tracking_link": "https://app.maalbardaar.com/tracking?query=MB20250115-0001",
          "last_updated": "2025-12-18T12:00:00+05:00"
        }
      }
    ]
  }
  
  